[{"Name":"Museum of Fine Arts, Boston, MA, USA","Lat":42.339381,"Lng":-71.094048,"Address":"465 Huntington Ave, Boston, MA 02115, USA","City":"Boston","Country":"US","PlaceId":"ChIJS3rn5w1644kRZNWVxNY_Ay8","Desc":"Neoclassical \u0026 modern wings house a vast collection from ancient Egyptian to contemporary American."},{"Name":"Museum of Science, Boston, MA, USA","Lat":42.3675224,"Lng":-71.0713361,"Address":"1 Museum Of Science Driveway, Boston, MA 02114, USA","City":"Boston","Country":"US","PlaceId":"ChIJLxyMQZZw44kRxTZwZ5PGulc","Desc":"Museum of Science is located in Boston at 1 Science Park, opposite of North Point Park. It has over 700 exhibits and is very popular among children and youth. The museum offers tours, courses, numerous special education programs, education support and numerous activities for schools and universities. The museum is also a member of the Association of Zoos and Aquariums, with over 100 rescued animals including some unique and rare species."},{"Name":"Boston Children's Museum","Lat":42.35186820000001,"Lng":-71.0499925,"Address":"308 Congress St, Boston, MA 02210, USA","City":"Boston","Country":"US","PlaceId":"ChIJ3wdaBoBw44kRw03LAexT5_c","Desc":"Fun, hands-on educational exhibits aimed at kids 11 \u0026 under, plus a play space for toddlers."},{"Name":"John F. Kennedy Presidential Library and Museum","Lat":42.316274,"Lng":-71.0342146,"Address":"Columbia Point, Boston, MA 02125, USA","City":"Boston","Country":"US","PlaceId":"ChIJSQcpaOR644kRJF6XrwoOG5E","Desc":"President Kennedy exhibits, videos \u0026 research collections in a striking I.M. Pei-designed building."},{"Name":"The Institute Of Contemporary Art","Lat":42.3528824,"Lng":-71.04301099999999,"Address":"25 Harbor Shore Drive, Boston, MA 02210, USA","City":"Boston","Country":"US","PlaceId":"ChIJxTCEOnlw44kROtPtIpMFsXo","Desc":"Striking contemporary art \u0026 performance space with glass-filled walls overlooking the Harbor."},{"Name":"Isabella Stewart Gardner Museum","Lat":42.33818,"Lng":-71.099121,"Address":"25 Evans Way, Boston, MA 02115, USA","City":"Boston","Country":"US","PlaceId":"ChIJSYXWkop544kRvTojD82gxdo","Desc":"Striking contemporary art \u0026 performance space with glass-filled walls overlooking the Harbor."},{"Name":"Museum of Science","Lat":42.3675224,"Lng":-71.0713361,"Address":"1 Museum Of Science Driveway, Boston, MA 02114, USA","City":"Boston","Country":"US","PlaceId":"ChIJLxyMQZZw44kRxTZwZ5PGulc","Desc":""},{"Name":"Boston Children's Museum","Lat":42.35186820000001,"Lng":-71.0499925,"Address":"308 Congress St, Boston, MA 02210, USA","City":"Boston","Country":"US","PlaceId":"ChIJ3wdaBoBw44kRw03LAexT5_c","Desc":""},{"Name":"The Institute Of Contemporary Art","Lat":42.3528824,"Lng":-71.04301099999999,"Address":"25 Harbor Shore Drive, Boston, MA 02210, USA","City":"Boston","Country":"US","PlaceId":"ChIJxTCEOnlw44kROtPtIpMFsXo","Desc":""},{"Name":"Boston Tea Party Ships \u0026 Museum","Lat":42.35217859999999,"Lng":-71.0512797,"Address":"306 Congress St, Boston, MA 02210, USA","City":"Boston","Country":"US","PlaceId":"ChIJ4bwEPIBw44kRs7STmn977tE","Desc":""},{"Name":"Museum of African American History,Boston","Lat":42.3600988,"Lng":-71.0652757,"Address":"46 Joy St, Boston, MA 02114, USA","City":"Boston","Country":"US","PlaceId":"ChIJlRw0WJtw44kRFrrWsArGupw","Desc":""},{"Name":"Gibson House Museum,Boston","Lat":42.3547464,"Lng":-71.0740765,"Address":"137 Beacon St, Boston, MA 02116, USA","City":"Boston","Country":"US","PlaceId":"ChIJy49xqAp644kRuJaNEOaydPs","Desc":""},{"Name":"The Paul Revere House","Lat":42.3637379,"Lng":-71.0536997,"Address":"19 N Square, Boston, MA 02113, USA","City":"Boston","Country":"US","PlaceId":"ChIJtT5ZHIlw44kRzCtDBAjPP3A","Desc":""},{"Name":"Nichols House Museum","Lat":42.35846859999999,"Lng":-71.0659053,"Address":"55 Mt Vernon St, Boston, MA 02108, USA","City":"Boston","Country":"US","PlaceId":"ChIJvTBZiptw44kR4yIWu8C-9WI","Desc":""},{"Name":"Paul S. Russell, MD Museum of Medical History and Innovation at Massachusetts General Hospital","Lat":42.361317,"Lng":-71.0690973,"Address":"2 N Grove St, Boston, MA 02114, USA","City":"Boston","Country":"US","PlaceId":"ChIJqb7jdZlw44kRrYmPoOy1V2E","Desc":""},{"Name":"The Sports Museum","Lat":42.366295,"Lng":-71.062063,"Address":"100 Legends Way, Boston, MA 02114, USA","City":"Boston","Country":"US","PlaceId":"ChIJywUtFo5w44kRuSnfESl3JKA","Desc":""},{"Name":"USS Constitution Museum","Lat":42.3739796,"Lng":-71.0554239,"Address":"Building 22, Charlestown Navy Yard, Charlestown, MA 02129, USA","City":"Charlestown","Country":"US","PlaceId":"ChIJOU-Kd_Rw44kRpQxHRXAFwqU","Desc":""},{"Name":"Boston Fire Museum","Lat":42.35076350000001,"Lng":-71.0488532,"Address":"344 Congress St, Boston, MA 02210, USA","City":"Boston","Country":"US","PlaceId":"ChIJl-cs9n9w44kRH04KVSWVV8c","Desc":""},{"Name":"Metropolitan Waterworks Museum","Lat":42.3317391,"Lng":-71.15554019999999,"Address":"2450 Beacon St, Chestnut Hill, MA 02467, USA","City":"Boston","Country":"US","PlaceId":"ChIJxfLDwVd444kRrJuYCelJfuk","Desc":""},{"Name":"Massachusetts Archives \u0026 Commonwealth Museum","Lat":42.3139933,"Lng":-71.0347336,"Address":"220 Morrissey Blvd, Boston, MA 02125, USA","City":"Boston","Country":"US","PlaceId":"ChIJ7du2n-N644kRHIBZ_whctk4","Desc":""},{"Name":"Design Museum Boston","Lat":42.357,"Lng":-71.057588,"Address":"50 Milk St, Boston, MA 02109, USA","City":"Boston","Country":"US","PlaceId":"ChIJszlJdodw44kRGQ7HPsDTbnU","Desc":""},{"Name":"Museum of Ice Cream, New York, NY, USA","Lat":40.792494,"Lng":-73.951909,"Address":"5th Ave \u0026 103rd St, New York, NY 10029, USA","City":"New York","Country":"US","PlaceId":"ChIJi4hYtB32wokR1Npx_Tv7phk","Desc":"Museum of Ice Cream located at 100 Gansevoort St in New York is a dream destination for children. A real-life fairy tale includes a pool of sprinkles, a chocolate ice-cream room and other things young children can only dread about. And certainly everyone is treated with ice-cream of own choice))"},{"Name":"Illuzion Glass Gallery, Denver, CO, United States","Lat":39.7202408,"Lng":-104.9873101,"Address":"238 Broadway, Denver, CO 80203, USA","City":"Denver","Country":"US","PlaceId":"ChIJ81TzWyB_bIcR-9bI6joFryc","Desc":""},{"Name":"Boston Fire Museum","Lat":42.35076350000001,"Lng":-71.0488532,"Address":"344 Congress St, Boston, MA 02210, USA","City":"Boston","Country":"US","PlaceId":"ChIJl-cs9n9w44kRH04KVSWVV8c","Desc":""}]